City_ID,City,Country,Max Temp,Current Description,Lat,Lng,Hotel Name
6,Puerto Ayora,EC,78.76,overcast clouds,-0.7393,-90.3518,Finch Bay Galapagos Hotel
7,Isangel,VU,80.71,broken clouds,-19.55,169.2667,Tanna Lodge
8,Hilo,US,84.27,scattered clouds,19.7297,-155.09,Hilo Hawaiian Hotel
10,Tecoanapa,MX,80.65,overcast clouds,16.5167,-98.75,Hotel Manglares
17,Kapaa,US,84.18,broken clouds,22.0752,-159.319,Sheraton Kauai Coconut Beach Resort
26,Cayenne,GF,78.84,moderate rain,4.9333,-52.3333,Hôtel Le Dronmi
33,Mtwara,TZ,76.42,light rain,-10.2667,40.1833,TIL Hotels Mtwara
37,Guanambi,BR,78.35,overcast clouds,-14.2233,-42.7814,Leopoldo Hotel
39,Nioro,GM,79.81,overcast clouds,13.35,-15.75,
42,Mount Isa,AU,80.37,light rain,-20.7333,139.5,ibis Styles Mt Isa Verona
48,Vaitape,PF,75.96,light rain,-16.5167,-151.75,Conrad Bora Bora Nui
52,Maiduguri,NG,83.43,broken clouds,11.8464,13.1603,Kagel Mari Police Station
59,Barreirinhas,BR,80.87,broken clouds,-2.7469,-42.8264,Gran Lençóis Flat Residence
64,Saint-Georges,GD,82.08,scattered clouds,12.0564,-61.7485,Radisson Grenada Beach Resort
67,Avarua,CK,77.05,few clouds,-21.2078,-159.775,Paradise Inn
70,Coahuayana,MX,83.55,overcast clouds,18.7333,-103.6833,El rranchito michuacan de ocampos
71,Vaini,TO,78.96,few clouds,-21.2,-175.2,Keleti Beach Resort
77,Lakatoro,VU,81.84,few clouds,-16.0999,167.4164,Lakatoro Palm Lodge
79,Arlit,NE,82.02,clear sky,18.7369,7.3853,Case de Passage De la Prefecture
85,Springdale,US,75.33,overcast clouds,36.1867,-94.1288,Springdale Inn
102,Georgetown,MY,77.9,few clouds,5.4112,100.3354,Cititel Penang
103,Bengkulu,ID,75.15,overcast clouds,-3.8004,102.2655,Grage Hotel Bengkulu
104,Inirida,CO,76.82,overcast clouds,3.8653,-67.9239,Fuente del Guania Hotel de Lujo
106,Manicore,BR,82.54,broken clouds,-5.8092,-61.3003,Hotel Durval
108,San Juan,AR,79.29,clear sky,-31.5375,-68.5364,Hotel Provincial
113,Dingle,PH,77.94,overcast clouds,10.9995,122.6711,SEGAYA PROPERTY
117,Atuona,PF,78.12,clear sky,-9.8,-139.0333,Villa Enata
120,Sao Raimundo Nonato,BR,81.59,overcast clouds,-9.0153,-42.6994,Real Hotel
139,Bang Saphan,TH,76.91,overcast clouds,11.2126,99.5117,Ladawan Boutique Hotel
141,Labuhan,ID,79.18,scattered clouds,-6.8844,112.2051,PT PPI Lamongan Tambak C
144,Road Town,VG,82.44,scattered clouds,18.4167,-64.6167,"ZINGARA 76ft Catamaran, full crew-all included"
147,Pamanukan,ID,78.75,broken clouds,-6.2842,107.8106,Paris Day Hotel Pamanukan
150,Victoria Point,AU,79.48,broken clouds,-27.5833,153.3,Bay Retreat Motel
151,Acapulco,MX,79.54,overcast clouds,16.8634,-99.8901,HS Hotsson Smart Acapulco
153,Ugoofaaru,MV,81.95,broken clouds,5.6667,73.0,Ungoofaaru Inn
158,Butaritari,KI,81.55,scattered clouds,3.0707,172.7902,Isles Sunset Lodge
160,Noumea,NC,78.78,few clouds,-22.2763,166.4572,Hôtel Le Lagon
171,Sao Jose Da Coroa Grande,BR,77.72,broken clouds,-8.8978,-35.1478,Crôa Mares Hotel
177,Ibotirama,BR,78.84,overcast clouds,-12.1853,-43.2206,Serra do Rio Hotel
182,Bathsheba,BB,81.21,scattered clouds,13.2167,-59.5167,Atlantis Hotel
184,Gondanglegi,ID,77.68,broken clouds,-7.7479,112.0132,pondok pesantren mamba'ul 'ulum selo rejo
186,Santa Isabel Do Rio Negro,BR,78.96,overcast clouds,-0.4139,-65.0192,Hotel GSA
188,Faanui,PF,75.85,light rain,-16.4833,-151.75,Bora-Bora Pearl Beach Resort & Spa
192,Kavaratti,IN,81.45,overcast clouds,10.5669,72.642,Hotels in Lakshadweep Islands
199,Barstow,US,79.79,overcast clouds,34.8986,-117.0228,"Motel 6 Barstow, CA"
201,Hithadhoo,MV,82.54,broken clouds,-0.6,73.0833,Scoop Guest House
204,Wentzville,US,76.64,broken clouds,38.8114,-90.8529,Fairfield Inn & Suites by Marriott St. Louis West/Wentzville
209,Harper,LR,77.47,overcast clouds,4.375,-7.7169,Screensaver
216,Touros,BR,81.5,few clouds,-5.1989,-35.4608,INN NEW HORIZON
217,Hun,LY,76.86,overcast clouds,29.1268,15.9477,Alrwasi Hotel
219,Chateaubelair,VC,81.21,broken clouds,13.2833,-61.25,Richmond Vale Diving & Hiking Center
225,Bandarbeyla,SO,77.85,few clouds,9.4942,50.8122,JABIR HOTEL
226,Sao Filipe,CV,78.1,scattered clouds,14.8961,-24.4956,Hotel Xaguate
227,Salalah,OM,75.16,scattered clouds,17.0151,54.0924,"HAMDAN PLAZA HOTEL SALALAH, an HTG Hotel"
230,Paraopeba,BR,78.35,overcast clouds,-19.2757,-44.4033,HC Hotel Paraopeba
234,Kibala,TD,76.95,few clouds,9.1104,18.3463,hotel safari
236,Umm Kaddadah,SD,83.55,clear sky,13.6017,26.6876,
238,Caravelas,BR,77.43,clear sky,-17.7125,-39.2481,Pousada dos Navegantes
249,Alenquer,BR,80.94,broken clouds,-1.9417,-54.7383,Josilene Castro
253,North Las Vegas,US,79.12,clear sky,36.1989,-115.1175,Plaza Hotel & Casino
258,Miri,MY,77.14,scattered clouds,4.4148,114.0089,"Mega Hotel, Miri"
262,Kodinar,IN,75.6,clear sky,20.7903,70.7031,residency of N.B vadhel
267,Grenville,GD,82.45,overcast clouds,12.1167,-61.6167,Valley Breeze Guest House
270,Waddan,LY,77.0,overcast clouds,29.1614,16.139,محل الشريف محمد العايب
272,Sur,OM,80.83,clear sky,22.5667,59.5289,Sur Plaza Hotel
273,Nsanje,MW,78.57,clear sky,-16.92,35.262,Nsanje Discovery Lodge
275,Puerto El Triunfo,SV,82.56,scattered clouds,13.2833,-88.55,Hotel Jardin
278,Axim,GH,77.63,scattered clouds,4.8699,-2.2405,Axim Beach Resort And Spa
289,Port Blair,IN,79.74,broken clouds,11.6667,92.75,"Welcomhotel By ITC Hotels, Bay Island, Port Blair"
291,Mitu,CO,75.85,overcast clouds,1.1983,-70.1733,
297,Barahan,PH,80.91,overcast clouds,13.0121,120.762,Grand Creek Hotel and Resort
301,Maragogi,BR,77.56,scattered clouds,-9.0122,-35.2225,Salinas do Maragogi All Inclusive Resort
302,Tual,ID,82.53,overcast clouds,-5.6667,132.75,Grand Vilia Hotel
313,Campos Belos,BR,78.94,light rain,-13.0367,-46.7717,Pousada Carnaúba
316,Tabou,CI,77.31,overcast clouds,4.423,-7.3528,hotêl doufoulougou
319,Puerto Ayacucho,VE,77.41,moderate rain,5.6639,-67.6236,Posada Turistica Manapiare
321,Takoradi,GH,77.83,scattered clouds,4.8845,-1.7554,Raybow International Hotel
322,Piacabucu,BR,78.4,broken clouds,-10.4056,-36.4344,Piaçabuçu News
324,Lorengau,PG,82.36,broken clouds,-2.0226,147.2712,Lorengau Harbourside Hotel
328,Itarema,BR,80.26,clear sky,-2.9248,-39.9167,"Sea Lounge! Bar, Club & Restaurant"
332,Morehead,US,76.84,clear sky,37.2711,-87.1764,CCI Express Inn
337,Surt,LY,75.94,overcast clouds,31.2089,16.5887,الهادي ابوشعاله سرت
338,Alofi,NU,80.49,broken clouds,-19.0595,-169.9187,Taloa Heights
342,Acarau,BR,80.4,clear sky,-2.8856,-40.12,castelo pizzaria
355,Sinazongwe,ZM,80.37,few clouds,-17.2614,27.4618,Lakeview Lodge
360,Ahuimanu,US,83.91,scattered clouds,21.4447,-157.8378,Paradise Bay Resort
365,Meadow Lake,US,76.39,clear sky,34.8014,-106.5436,TumbleWeed RV Park
366,Maceio,BR,78.24,clear sky,-9.6658,-35.7353,Poutur Pousada
370,Amuntai,ID,76.21,scattered clouds,-2.4177,115.2494,Hotel Balqis
377,Fomboni,KM,79.66,few clouds,-12.28,43.7425,Auberge les abou
380,Luganville,VU,81.48,scattered clouds,-15.5333,167.1667,The Espiritu Hotel
382,Atar,MR,84.22,scattered clouds,20.5169,-13.0499,Oumou Elghoura
417,Progreso,MX,82.35,overcast clouds,21.2833,-89.6667,Playa Linda Hotel
426,Adrar,MR,83.05,scattered clouds,20.5022,-10.0711,
428,Port-Gentil,GA,78.76,light rain,-0.7193,8.7815,Fengshui Residence
434,Alta Floresta,BR,77.32,moderate rain,-9.8756,-56.0861,Floresta Amazonica Hotel
438,Sinnamary,GF,78.04,moderate rain,5.3833,-52.95,ALETHEIA Appartement Sinnamary
443,Thinadhoo,MV,82.8,overcast clouds,0.5333,72.9333,
446,Kalmunai,LK,77.83,overcast clouds,7.4167,81.8167,VS Villa
448,Pauini,BR,81.37,broken clouds,-7.7136,-66.9764,Casa do Kiwliks
449,Esmeralda,CU,77.77,overcast clouds,21.8525,-78.1169,Centro de Pioneros Exploradores
450,Gayeri,BF,83.7,broken clouds,12.6497,0.4931,
453,San Ramon De La Nueva Oran,AR,78.39,clear sky,-23.1322,-64.326,Hotel Residencial Centro
455,Trairi,BR,79.74,clear sky,-3.2778,-39.2689,janelas do mar
459,Tiarei,PF,75.22,light rain,-17.5333,-149.3333,Le Rocher de Tahiti
465,Pitimbu,BR,79.39,broken clouds,-7.4706,-34.8086,Reserva do Abiaí
469,Hilton Head Island,US,77.11,clear sky,32.2163,-80.7526,Disney’s Hilton Head Island Resort
472,Dillon,US,75.36,overcast clouds,34.4166,-79.3712,Dillon Express Inn
477,Baracoa,CU,79.7,broken clouds,20.3467,-74.4958,Hostal Rio Miel
478,Mecca,SA,79.29,clear sky,21.4267,39.8261,"Makkah Clock Royal Tower, A Fairmont Hotel"
481,Port Hedland,AU,75.25,clear sky,-20.3167,118.5667,The Esplanade Hotel
484,Samarai,PG,82.83,scattered clouds,-10.6167,150.6667,Nuli Sapi
486,Nautla,MX,81.37,broken clouds,20.2167,-96.7833,Casa Blanca
488,Karratha,AU,78.3,clear sky,-20.7377,116.8463,ibis Styles Karratha
490,Portobelo,PA,84.61,overcast clouds,9.55,-79.65,Scuba Portobelo
491,Umm Lajj,SA,77.13,clear sky,25.0213,37.2685,Moon light Furnished Units
496,Muli,MV,82.27,few clouds,2.9167,73.5667,Medhufushi Island Resort
498,Namatanai,PG,84.45,overcast clouds,-3.6667,152.4333,Seagulls Inn Namatani
501,Waingapu,ID,80.87,overcast clouds,-9.6567,120.2641,Pondok Wisata Elim
502,Acandi,CO,78.93,broken clouds,8.5063,-77.2778,Hotel Patio Bonito
504,Makakilo City,US,82.72,broken clouds,21.3469,-158.0858,Marriott's Ko Olina Beach Club
505,Saint George,US,75.67,clear sky,37.1041,-113.5841,Best Western Plus Abbey Inn
512,Gouloure,BF,83.93,broken clouds,12.2306,-1.9289,
515,Ormara,PK,76.6,clear sky,25.2088,64.6357,Crystal Beach and Camping Resort Ormara
517,Vila Velha,BR,78.75,few clouds,-20.3297,-40.2925,Quality Suites Vila Velha
520,Biltine,TD,83.91,clear sky,14.5333,20.9167,Hôtel Trois Étoiles de Biltine
521,Salinopolis,BR,81.36,clear sky,-0.6136,-47.3561,Salinas Park Resort Maçarico AP101
527,Birao,CF,76.41,overcast clouds,10.2849,22.7882,
539,South Venice,US,80.98,overcast clouds,27.0531,-82.4243,"Island Sun Inn & Suites - Venice, Florida Historic Downtown & Beach Getaway"
540,Akyab,MM,75.92,overcast clouds,20.15,92.9,Hotel Memory
542,Puerto Narino,CO,82.35,overcast clouds,-3.7703,-70.3831,Eware Refugio Amazonico
546,Rio Rancho,US,77.05,clear sky,35.2334,-106.6645,Hilton Garden Inn Albuquerque North/Rio Rancho
551,Les Cayes,HT,79.57,broken clouds,18.2,-73.75,Villa Orphee
552,San Cristobal,VE,75.38,broken clouds,7.7669,-72.225,Posada Villaven C.A.
557,Cuamba,MZ,78.17,clear sky,-14.8031,36.5372,Hotel Vision
562,Poplar Bluff,US,80.38,scattered clouds,36.757,-90.3929,Holiday Inn Poplar Bluff
568,Nazare,BR,75.92,moderate rain,-13.035,-39.0144,Hotel Victória Réghia
571,Matara,LK,76.86,overcast clouds,5.9485,80.5353,Amaloh Boutique Resort
576,Auki,SB,83.39,few clouds,-8.7676,160.7034,Auki Motel
591,Manokwari,ID,80.55,overcast clouds,-0.8667,134.0833,Swiss Belhotel Manokwari
596,Belmonte,BR,77.5,scattered clouds,-15.8631,-38.8828,Pousada Monte Carmelo O Pão
597,Ca Mau,VN,75.51,overcast clouds,9.1769,105.15,Khách Sạn Mường Thanh Luxury Cà Mau
604,Robertsport,LR,79.09,moderate rain,6.7533,-11.3686,Kwepunha Retreat
605,Finschhafen,PG,84.25,scattered clouds,-6.6024,147.8681,Cossam Guest House
609,Valparaiso,CL,76.64,clear sky,-33.0393,-71.6273,Hotel Ultramar
612,Aloleng,PH,80.26,overcast clouds,16.1307,119.7824,Steve Walden and Emma Sison-Walden Residence
616,Samana,DO,84.16,scattered clouds,19.2056,-69.3369,The Bannister - Hotel & Yacht Club
617,Lagunillas,VE,82.11,broken clouds,10.1301,-71.2595,Casa de Beatriz y Chucho
619,Hambantota,LK,78.06,overcast clouds,6.1241,81.1185,Bungalow 63
625,Byron Bay,AU,75.15,scattered clouds,-28.65,153.6167,Backpackers Inn on the Beach
626,Lake City,US,79.63,scattered clouds,30.1897,-82.6393,Ramada Limited Lake City
627,Manado,ID,75.97,few clouds,1.487,124.8455,Aryaduta Hotel
629,Viedma,AR,75.61,scattered clouds,-40.8135,-62.9967,Hotel Cristal
632,Blackwater,AU,83.55,broken clouds,-23.5833,148.8833,Blackwater Motor Inn
636,Natal,BR,81.25,few clouds,-5.795,-35.2094,Villa Park Hotel | Natal
640,Farafangana,MG,75.78,light rain,-22.8167,47.8333,Miarina
643,Simoes,BR,80.11,overcast clouds,-7.5989,-40.8178,Hotel Ponto Certo
651,Kudahuvadhoo,MV,82.4,scattered clouds,2.6708,72.8944,Niyama Private Islands Maldives
653,Bambanglipuro,ID,78.08,overcast clouds,-7.95,110.2833,Puri Brata
657,Qandala,SO,79.83,clear sky,11.472,49.8728,
661,Bahia De Caraquez,EC,77.18,overcast clouds,-0.6,-80.4167,Saiananda
664,Baculin,PH,80.44,heavy intensity rain,7.4525,126.5842,Shovy's Cove
666,Kavieng,PG,84.47,broken clouds,-2.5744,150.7967,Nusa Island Retreat
669,Gboko,NG,76.82,broken clouds,7.3179,8.9951,Mavillah Apartment and Suites
674,Barabai,ID,76.57,broken clouds,-2.5833,115.3833,HOTEL BOURAQ INDAH PERMAI
675,Poya,NC,78.4,clear sky,-21.35,165.15,
677,El Espinal,MX,78.49,scattered clouds,16.3333,-94.0667,
678,Cape Coast,GH,78.22,scattered clouds,5.1053,-1.2466,Samrit Hotel
686,Trincomalee,LK,78.51,overcast clouds,8.5711,81.2335,Welcombe Hotel
690,Voh,NC,81.41,scattered clouds,-20.9667,164.7,Le gîte du Koniambo
